PacketNumber,Timestamp,Temperature,Pressure,AltitudePressure,Humidity,GPSFix,Latitude,Longitude,AltitudeGPS,SpeedKnots,Angle,ax,ay,az,gx,gy,gz,mx,my,mz,Magheading,yaw,roll,pitch,flightStage,RSSI
746,355.1,28.6,949.1,562.9,40,1,50.48238,6.18066,519.7,0.150,128,1.1081,-0.1902,-9.0444,0.3261,0.0219,0.0135,-20.7581,16.0941,48.6924,226,52,-165,-0,1,-78
747,355.6,28.8,949.4,560.2,40,1,50.48239,6.18066,519.7,0.050,128,1.2821,0.2139,-7.6441,0.0204,0.0784,0.0216,-18.7387,13.5363,48.5726,229,54,-164,-3,1,-76
748,356.0,28.8,949.3,561.0,40,1,50.48239,6.18066,519.7,0.050,128,1.5992,0.4710,-9.4588,-0.1141,0.1788,0.1467,-20.2800,16.0953,47.7807,224,53,-168,-0,1,-77
749,356.5,29.0,949.6,558.5,41,1,50.48238,6.18066,519.7,0.050,128,0.5721,-0.9474,-9.1148,0.6243,-0.3661,0.3955,-20.8277,20.2464,47.3683,227,51,-169,1,1,-83
750,356.9,28.8,949.3,560.6,40,1,50.48238,6.18066,519.7,0.050,128,0.7520,-0.3063,-10.7030,0.1033,0.4723,-0.0017,-21.1955,16.4794,48.1269,226,49,-164,0,1,-79
751,357.3,29.1,949.8,556.6,39,1,50.48239,6.18065,519.7,0.060,128,0.8076,0.1795,-10.7570,0.0045,-0.1090,-0.1639,-22.7968,18.3776,47.9583,225,46,-169,-1,1,-79
752,357.8,28.9,949.5,559.5,40,1,50.48239,6.18065,519.7,0.060,128,1.7613,1.0042,-8.4176,0.0357,0.0491,-0.0970,-21.2965,15.5057,49.5484,226,46,-169,-3,1,-74
753,358.2,29.3,950.0,554.4,40,1,50.48238,6.18067,519.7,0.140,128,0.7827,0.3276,-9.4423,0.0031,0.3888,0.1012,-21.4970,17.4095,48.3849,224,47,-172,-2,1,-76
754,358.7,29.1,949.8,556.3,40,1,50.48238,6.18067,519.7,0.140,128,1.8264,-0.2151,-9.4916,0.1577,-0.0782,0.0307,-16.4534,14.8121,49.7141,260,54,-172,-15,1,-76
755,359.1,29.3,950.0,554.6,40,1,50.48238,6.18067,519.7,0.140,128,1.4962,1.1334,-8.3695,0.0955,0.6555,0.2132,-19.6767,14.6008,49.0178,241,53,-172,-10,1,-77
756,359.6,29.1,949.9,556.1,40,1,50.48239,6.18067,519.7,0.030,128,1.0928,0.5539,-8.7827,0.1964,0.1599,0.1325,-19.1241,12.7589,49.7110,239,53,-172,-11,1,-75
757,360.0,29.4,950.1,553.6,40,1,50.48239,6.18067,519.7,0.030,128,1.3176,0.6404,-8.6688,-0.1643,0.0284,-0.3770,-19.5997,14.9671,48.9127,223,60,-178,-4,1,-75
758,360.5,29.1,949.8,556.7,43,1,50.48239,6.18069,519.7,0.060,128,0.8703,-0.8822,-9.0033,-0.4676,0.1501,-0.1329,-24.9942,18.0285,48.5817,206,72,167,-3,1,-84
759,360.9,29.0,949.7,557.8,41,1,50.48239,6.18069,519.7,0.060,128,0.2692,-5.2107,-8.2979,-3.2680,0.1744,-2.3848,-24.9248,26.8092,44.7960,198,90,146,3,1,-79
760,361.4,30.3,951.5,541.8,42,1,50.48239,6.18070,519.7,0.100,128,-4.0958,-8.7086,3.5598,-1.8093,0.0824,0.8195,-41.5334,40.0250,0.4075,142,84,75,24,1,-77
761,361.8,29.9,950.9,546.7,41,1,50.48239,6.18070,519.7,0.100,128,1.1626,-6.5497,8.3642,-0.9362,-0.5219,3.3446,-9.5174,47.7706,-22.3448,113,119,43,-24,1,-70
762,362.3,30.6,952.0,536.9,41,1,50.48239,6.18072,519.7,0.130,128,2.3139,-2.6229,9.2528,-2.7117,0.3111,3.1982,-2.8568,40.4070,-30.1666,109,130,38,-15,1,-72
763,362.7,27.6,947.6,575.9,40,1,50.48239,6.18072,519.7,0.130,128,0.3035,0.3051,9.6812,0.8424,1.0179,0.0917,4.8310,32.6695,-34.3661,112,126,37,-21,1,-68
764,363.2,27.9,948.0,572.1,40,1,50.48239,6.18072,519.7,0.130,128,2.2109,1.2637,9.3314,0.1983,0.1344,0.0170,12.3256,32.5529,-31.8429,87,136,19,-19,1,-70
765,363.6,27.7,947.7,574.9,40,1,50.48240,6.18071,519.7,0.090,128,1.9116,-1.3443,9.5603,0.2500,-0.0816,-0.0035,9.5430,35.5702,-31.0667,90,140,25,-16,1,-70
766,364.0,28.0,948.1,571.2,41,1,50.48240,6.18071,519.7,0.090,128,2.7245,-0.6879,9.4300,0.0558,0.0424,0.0218,10.1136,35.5273,-30.7975,88,145,26,-16,1,-71
767,364.5,27.6,947.5,576.8,40,1,50.48240,6.18070,519.7,0.130,128,4.5668,0.7483,8.8983,-0.0486,0.1909,0.0696,12.4817,33.5613,-29.1930,87,149,24,-20,1,-68
768,364.9,27.8,947.7,574.6,41,1,50.48240,6.18070,519.7,0.130,128,1.9210,-1.4154,10.4184,-0.0490,0.1686,0.5474,11.4040,36.2520,-29.5405,80,171,27,-14,1,-65
769,365.4,27.2,946.9,581.8,40,1,50.48240,6.18070,519.7,0.010,128,0.6987,-1.3455,8.7034,-0.2407,0.1469,0.2267,7.9890,33.7626,-32.6725,80,192,27,-7,1,-71
770,365.8,27.4,947.1,580.0,39,1,50.48240,6.18070,519.7,0.010,128,1.1862,-2.2188,9.8948,1.5464,0.3081,1.0713,8.6063,31.9038,-33.2917,84,207,27,-8,1,-67
771,366.3,27.1,946.8,583.3,40,1,50.48240,6.18069,519.7,0.020,128,0.8573,-5.8885,7.7080,0.7072,-0.0985,0.5571,17.4494,36.7177,-27.0148,46,232,45,-12,1,-74
772,366.7,27.5,947.2,579.1,40,1,50.48240,6.18069,519.7,0.020,128,0.1580,-4.7972,6.6786,0.5294,-0.0776,-0.0410,16.4773,39.7325,-24.7380,48,231,44,-4,1,-65
773,367.1,27.2,946.9,582.2,40,1,50.48240,6.18069,519.7,0.020,128,-1.3802,-2.3183,9.8690,-1.0186,0.8024,-1.0151,7.8750,34.4273,-33.0461,81,199,15,-4,1,-66
774,367.6,27.5,947.2,579.2,41,1,50.48240,6.18068,519.7,0.110,128,0.4349,-2.4783,8.9323,-1.0692,-1.2220,1.9830,21.9829,16.5635,-34.0179,68,231,2,-24,1,-72
775,368.0,27.3,947.0,580.8,40,1,50.48240,6.18068,519.7,0.110,128,-2.0192,-0.9865,9.7516,-0.1767,-0.1211,2.0182,8.5638,0.3862,-40.0895,140,303,-15,-22,1,-64
776,368.5,27.8,947.7,575.4,38,1,50.48241,6.18068,519.7,0.190,128,0.2160,-0.7708,10.9524,0.6210,-0.3598,0.7994,-6.0422,-6.0715,-40.2096,303,333,-7,13,1,-73
777,368.9,28.4,948.5,567.7,40,1,50.48241,6.18068,519.7,0.190,128,-0.1272,2.5908,8.4288,-0.4946,0.0017,-0.0657,-9.6881,-19.1672,-33.3796,247,339,-5,3,1,-65
778,369.4,28.8,949.2,561.5,39,1,50.48241,6.18067,519.7,0.040,128,0.7461,-0.2281,9.5204,-0.9069,-0.2919,-1.0807,-5.2398,-9.9076,-39.1339,248,323,-14,2,1,-66
779,369.8,27.9,947.8,574.2,40,1,50.48241,6.18067,519.7,0.040,128,-1.2252,4.2319,9.2997,1.5958,-0.7161,-2.1969,8.8609,-9.6788,-37.3409,285,280,5,-8,1,-70
780,370.2,28.2,948.3,569.4,41,1,50.48241,6.18066,519.7,0.140,128,1.0655,-2.9570,10.9841,-0.6361,1.4961,-2.6309,9.9801,23.1345,-38.3186,87,218,-18,-12,1,-64
781,370.7,27.9,947.9,573.2,41,1,50.48241,6.18066,519.7,0.140,128,1.3081,1.2305,7.6963,1.8496,0.9703,-2.9029,-14.7083,26.0110,-39.5737,98,152,13,16,1,-60
782,371.1,27.8,947.7,575.2,41,1,50.48241,6.18066,519.7,0.140,128,1.5933,-3.9275,10.1284,-0.9031,1.0774,-3.3715,-27.4736,10.5889,-38.3001,23,85,55,52,1,-65
783,371.6,28.2,948.4,569.2,38,1,50.48242,6.18066,519.7,0.110,128,1.1992,1.0966,9.0779,-0.2283,0.2994,-3.0398,2.7982,-6.5548,-39.7562,352,292,-51,48,1,-58
784,372.0,29.4,950.0,554.7,42,1,50.48242,6.18066,519.7,0.110,128,0.1864,1.6405,9.8538,-0.1174,-0.0859,-2.5712,14.2816,8.5439,-39.4275,90,262,-57,-21,1,-64
785,372.5,28.1,948.2,570.8,40,1,50.48242,6.18066,519.7,0.080,128,-1.1755,-3.9595,9.6401,2.0177,-0.1548,-0.6356,2.6030,32.0573,-36.6323,141,225,-37,-62,1,-73
786,372.9,28.0,948.1,571.7,41,1,50.48242,6.18066,519.7,0.080,128,-0.9531,1.1132,7.4310,0.6213,0.2902,3.7130,11.9574,14.6126,-40.0540,82,279,-57,-13,1,-70
787,373.4,28.1,948.2,570.6,41,1,50.48243,6.18066,519.7,0.080,128,-0.2124,2.2626,9.2985,0.7239,-3.8067,2.7331,-1.5299,-9.9229,-38.4038,341,337,-11,42,1,-63
788,373.8,27.9,947.9,573.1,40,1,50.48243,6.18066,519.7,0.080,128,-1.1826,-1.2081,10.1179,0.1586,-2.1525,0.8624,-17.0296,-7.7723,-37.6088,337,38,20,47,1,-59
789,374.3,28.2,948.3,569.4,39,1,50.48244,6.18066,519.7,0.160,128,2.1683,0.4579,9.2704,1.3376,0.3890,-0.5857,-13.9361,-3.9513,-41.1986,346,28,26,48,1,-62
790,374.7,28.0,948.0,572.6,40,1,50.48244,6.18066,519.7,0.160,128,-0.8549,1.2258,10.2294,-0.8102,1.4315,-0.9166,-10.0560,-8.1557,-39.1289,336,357,3,36,1,-74
791,375.1,28.1,948.2,570.4,40,1,50.48244,6.18066,519.7,0.160,128,-0.5910,-0.7495,12.0323,-0.4663,-1.4685,-1.1266,-0.9559,-8.1235,-38.9574,340,327,-25,28,1,-64
792,375.6,28.4,948.6,567.3,40,1,50.48244,6.18067,519.7,0.200,128,0.9011,0.4544,9.1659,0.6087,0.6319,-1.0885,7.5086,-4.5454,-38.7967,352,295,-33,20,1,-63
793,376.1,28.5,948.8,565.3,41,1,50.48244,6.18067,519.7,0.200,128,-0.0858,1.3585,9.0391,-0.0116,-0.2103,-0.7829,13.8551,5.0522,-38.6267,30,276,-20,3,1,-70
794,376.5,28.3,948.3,569.3,40,1,50.48246,6.18068,519.7,0.180,128,1.7317,0.8253,11.3457,-0.0605,0.5682,0.8955,15.1766,4.4295,-37.5825,26,275,-41,13,1,-67
795,376.9,28.4,948.6,567.1,39,1,50.48246,6.18068,519.7,0.180,128,-1.1105,1.1381,9.5157,-1.0544,0.6137,2.1694,-0.1681,-12.1071,-36.5680,339,329,-35,33,1,-60
796,377.4,28.1,948.2,571.0,40,1,50.48246,6.18068,519.7,0.120,128,0.2550,-0.6784,9.0027,0.1100,-1.5044,0.9469,-4.1811,-6.0483,-40.3020,335,13,-1,23,1,-64
797,377.8,28.4,948.5,568.0,40,1,50.48246,6.18068,519.7,0.120,128,-1.6737,0.0219,11.2740,1.5619,1.6619,-0.7977,-18.9530,-9.7426,-38.3161,275,11,-4,30,1,-64
798,378.3,28.3,948.4,568.7,39,1,50.48246,6.18068,519.7,0.070,128,0.5414,0.6499,10.2540,-0.9224,-0.7787,-1.7020,5.2497,-1.5404,-41.0117,359,330,3,16,1,-61
799,378.7,28.3,948.4,568.5,41,1,50.48246,6.18068,519.7,0.070,128,1.1140,-0.2151,9.8303,0.8400,-0.3025,-1.9222,14.3995,2.3545,-39.2264,10,282,-11,3,1,-64
800,379.2,28.3,948.4,568.8,40,1,50.48247,6.18069,519.7,1.790,128,-0.2597,-0.3134,8.3630,0.8360,-0.6021,-1.4729,14.8730,17.1800,-37.8399,104,246,-12,-30,1,-66
801,379.6,28.1,948.1,571.7,41,1,50.48247,6.18069,519.7,1.790,128,0.8289,0.8182,10.6590,-0.5859,0.9004,-0.1355,9.9449,26.8728,-37.5896,87,222,-11,-11,1,-61
802,380.1,28.2,948.3,570.0,38,1,50.48247,6.18069,519.7,1.790,128,-2.5422,-2.9226,11.9032,-0.6142,-1.3343,0.8125,9.1142,27.0450,-38.3773,63,230,-28,6,1,-60
803,380.5,28.0,948.0,572.5,40,1,50.48247,6.18069,519.7,1.220,128,0.9638,-0.2625,9.8315,0.1809,-0.1064,1.3783,16.2857,11.5361,-39.0359,27,259,-21,21,1,-61
804,380.9,28.4,948.5,567.8,40,1,50.48247,6.18069,519.7,1.220,128,-0.2680,0.3264,9.5157,0.6658,0.4129,1.1432,9.7818,5.8811,-41.1340,10,294,4,35,1,-73
805,381.4,28.1,948.0,572.1,40,1,50.48248,6.18069,519.7,1.950,128,0.7472,-0.5149,11.0569,0.6211,-0.3648,0.4669,10.0377,-2.5188,-40.2251,351,315,9,22,1,-63
806,381.8,28.3,948.3,569.9,40,1,50.48248,6.18069,519.7,1.950,128,1.1815,0.1913,10.0204,-0.1702,-0.0395,-0.2427,8.9302,-5.0430,-39.2573,343,315,5,15,1,-71
807,382.3,28.0,948.0,572.7,40,1,50.48248,6.18069,519.7,0.090,128,0.6336,-0.2554,9.5134,0.6744,0.7296,-0.5798,9.4793,1.5688,-39.3833,0,301,9,15,1,-63
808,382.7,28.4,948.5,568.4,38,1,50.48248,6.18069,519.7,0.090,128,0.6100,-0.4462,11.3668,0.5287,0.0256,-0.6660,14.3503,5.6229,-39.2026,9,282,6,5,1,-60
809,383.1,28.0,947.9,573.3,40,1,50.48248,6.18069,519.7,0.090,128,-0.3094,-0.1949,10.6449,-0.1283,0.5050,-0.4525,12.2623,9.5055,-40.0797,26,267,-1,10,1,-62
810,383.6,28.1,948.0,572.2,41,1,50.48249,6.18070,519.7,0.100,128,3.0073,-1.3301,10.7071,0.1449,0.0236,1.9574,17.3587,9.2744,-38.3075,20,268,2,12,1,-70
811,384.0,28.1,948.1,571.8,40,1,50.48249,6.18070,519.7,0.100,128,1.6228,0.3217,9.6483,0.0884,-0.2964,0.7296,13.6914,0.0526,-39.5851,357,289,6,11,1,-63
812,384.4,28.0,947.9,573.1,40,1,50.48249,6.18070,519.7,0.100,128,1.3436,2.0517,9.6389,-0.2451,1.3866,-0.6494,8.9271,-15.1902,-34.5038,321,293,-15,12,1,-60
813,384.9,28.2,948.1,571.2,40,1,50.48249,6.18070,519.7,0.100,128,3.2498,1.4225,9.5673,0.4621,-0.1081,-0.3791,21.2609,-7.6051,-32.1914,326,295,-4,-18,1,-62
814,385.3,28.5,948.5,567.5,42,1,50.48249,6.18070,519.7,0.060,128,3.0002,-0.9237,10.8163,0.2802,-0.0482,0.1260,19.0891,-3.0419,-35.9202,352,291,-3,-6,1,-59
815,385.8,28.2,948.1,571.5,41,1,50.48249,6.18070,519.7,0.060,128,1.4122,0.2956,9.3572,0.1606,-0.2051,0.0756,14.0613,-1.0743,-38.9269,357,289,-0,2,1,-62
816,386.2,28.2,948.2,570.5,39,1,50.48248,6.18071,519.7,0.120,128,1.1460,-0.8988,10.2235,0.2576,-0.0441,-0.1722,13.3224,1.4275,-39.7875,4,286,0,3,1,-64
817,386.7,27.9,947.7,574.9,40,1,50.48248,6.18071,519.7,0.120,128,-0.0444,-1.5043,9.6542,-0.2541,0.1634,-0.0038,13.3552,1.8066,-40.0700,11,284,-1,1,1,-58
818,387.1,28.4,948.5,568.3,39,1,50.48248,6.18071,519.7,0.120,128,1.2584,-1.9806,9.8232,0.3268,0.1188,0.0788,14.4202,8.8523,-41.0070,33,271,-1,1,1,-61
819,387.5,27.6,947.4,577.9,40,1,50.48248,6.18072,519.7,0.120,128,0.3236,-2.0719,9.0027,-0.4145,0.0381,0.0365,12.1109,14.2622,-40.7295,40,267,10,3,1,-56
820,388.0,27.9,947.7,575.4,41,1,50.48248,6.18072,519.7,0.120,128,0.0243,-1.9735,9.2105,0.0175,-0.0201,-0.0899,11.6748,12.1861,-41.6780,35,266,11,4,1,-55
821,388.4,27.6,947.2,579.5,40,1,50.48249,6.18074,519.7,0.140,128,-0.4396,0.4461,10.0498,-0.3495,0.0201,0.2457,8.8034,12.2710,-42.4478,44,263,18,3,1,-55
822,388.8,27.9,947.7,575.0,41,1,50.48249,6.18074,519.7,0.140,128,0.4147,-0.5137,9.6554,-0.7146,-0.5356,1.1484,10.2998,0.1623,-41.8480,339,280,17,-8,1,-58
824,389.7,27.8,947.6,575.8,41,1,50.48248,6.18073,519.7,0.060,128,1.5495,0.0634,9.9136,-0.2328,-0.2664,0.1354,-0.9016,-8.5699,-40.7096,215,328,-3,-16,1,-61
825,390.2,27.4,946.9,582.3,40,1,50.48249,6.18074,519.7,0.080,128,2.0630,-0.0551,10.1085,0.4649,-0.1539,-0.5024,-1.1750,-6.0404,-42.3790,200,331,-1,-21,1,-59
826,390.6,27.8,947.6,576.1,41,1,50.48249,6.18074,519.7,0.080,128,0.9472,-1.3870,9.9923,0.3489,0.3189,-0.2219,0.7135,-2.3673,-42.7740,192,328,0,-15,1,-56
827,391.1,27.1,946.5,585.8,40,1,50.48249,6.18074,519.7,0.080,128,1.6134,0.6167,8.7797,0.6715,0.9426,1.2500,-4.7154,-9.8330,-40.3113,236,343,-17,-5,1,-58
828,391.5,27.5,947.1,580.3,40,1,50.48249,6.18074,519.7,0.100,128,1.3862,1.4023,9.2950,-0.1098,0.1052,-0.1471,-6.4125,-16.3389,-37.0507,256,338,-30,4,1,-57
829,392.0,27.4,947.0,581.5,40,1,50.48249,6.18074,519.7,0.100,128,1.4276,1.1405,10.1226,-0.0236,-0.1716,0.0813,-4.6933,-15.6541,-37.2513,260,335,-25,3,1,-57
830,392.4,27.7,947.4,577.8,40,1,50.48249,6.18073,519.7,0.120,128,0.9803,5.4962,10.9818,-0.8263,1.9312,-1.4510,-15.7092,-17.3719,-34.3703,241,350,-27,9,1,-57
831,392.9,27.1,946.5,585.5,40,1,50.48249,6.18073,519.7,0.120,128,0.3698,1.4023,9.8244,-0.0973,-0.0462,-0.4743,-7.2344,-16.4831,-36.0221,260,344,-23,6,1,-52
832,393.3,27.6,947.2,579.4,40,1,50.48249,6.18073,519.7,0.070,128,1.2276,3.0316,9.2035,0.8676,0.2738,-0.7523,-7.6620,-21.5850,-33.6035,256,343,-31,4,1,-57
833,393.8,27.1,946.4,586.2,40,1,50.48249,6.18073,519.7,0.070,128,-0.8430,0.7660,8.7504,0.7084,0.1306,0.3279,-11.2056,-16.3517,-37.3887,260,2,-22,12,1,-55
834,394.2,27.0,946.3,586.9,40,1,50.48249,6.18072,519.7,0.110,128,2.7895,3.3397,10.7951,-0.6465,-0.2714,-0.8181,-10.9628,-17.7244,-36.2430,241,352,-19,1,1,-57
835,394.6,27.0,946.2,587.8,40,1,50.48249,6.18072,519.7,0.110,128,0.2361,4.3113,9.4007,-0.1440,-0.1552,-0.0668,-12.5226,-19.8057,-33.9087,242,4,-22,1,1,-58
836,395.1,27.0,946.3,587.2,40,1,50.48249,6.18072,519.7,0.110,128,1.0099,3.1252,8.9429,-0.2657,0.1631,-0.1161,-11.0493,-22.0368,-32.6324,240,0,-21,-5,1,-56
837,395.5,27.3,946.8,583.2,40,1,50.48249,6.18072,519.7,0.100,128,1.1933,4.0506,9.6366,-0.0058,-0.1751,0.0363,-12.1814,-23.2347,-30.1683,245,6,-24,-1,1,-55
838,396.0,26.4,945.4,594.8,40,1,50.48249,6.18072,519.7,0.100,128,3.3670,1.6915,9.8385,0.3930,0.4634,-0.4920,-1.9148,-20.4114,-33.2523,243,3,-19,-13,1,-55
839,396.4,27.1,946.5,586.0,41,1,50.48249,6.18073,519.7,0.010,128,2.4239,2.7140,9.3572,0.3839,-0.1180,-0.3629,1.2776,-19.7015,-34.7867,257,3,-22,-9,1,-54
840,396.9,27.1,946.5,585.7,39,1,50.48249,6.18073,519.7,0.010,128,1.4039,0.9556,9.3197,0.3595,0.3648,-0.3085,3.1168,-10.6647,-38.8144,268,350,-7,-3,1,-54
841,397.3,27.3,946.8,583.3,40,1,50.48249,6.18073,519.7,0.050,128,1.2028,0.0420,8.7504,0.0161,0.3344,-0.0466,6.4354,-4.6115,-41.3545,308,350,-8,-6,1,-54
842,397.8,26.8,946.0,590.2,40,1,50.48249,6.18073,519.7,0.050,128,1.1744,-0.6274,9.9641,-0.2504,-0.2967,1.9138,1.5979,-6.0614,-41.4774,318,353,-8,5,1,-54
843,398.2,27.2,946.6,584.3,39,1,50.48249,6.18073,519.7,0.090,128,-0.3851,0.4923,9.6460,-0.0307,0.3108,0.3820,-16.0840,-12.3147,-38.3275,232,20,-8,6,1,-52
844,398.6,26.7,945.8,591.8,40,1,50.48249,6.18073,519.7,0.090,128,0.1745,1.9711,9.7469,0.3900,0.0080,-0.1104,-19.3144,-12.0512,-36.9616,230,26,-14,8,1,-51
845,399.1,27.0,946.2,588.0,39,1,50.48249,6.18073,519.7,0.090,128,1.6453,3.2508,9.4230,0.2890,0.0754,-0.2926,-15.1119,-10.7460,-38.8920,220,23,-8,1,1,-54
846,399.5,27.9,947.6,575.8,40,1,50.48249,6.18073,519.7,0.080,128,1.4477,1.9829,9.5943,-0.2086,-0.1797,0.4875,-12.6635,-15.0727,-37.5675,227,30,-16,-7,1,-56
847,400.0,30.0,950.7,548.6,41,1,50.48249,6.18073,519.7,0.080,128,1.0016,2.7899,9.2117,0.0539,0.0950,0.2487,-14.9527,-15.5252,-36.7079,227,31,-15,-5,1,-55
848,400.4,30.4,951.2,544.2,40,1,50.48249,6.18072,519.7,0.120,128,0.3390,3.7935,9.0661,-0.7569,-0.5904,0.3618,-18.9345,-18.9731,-33.0371,231,36,-21,-1,1,-54
849,400.9,31.0,952.2,535.7,39,1,50.48249,6.18072,519.7,0.120,128,1.1791,3.7295,10.0592,0.1755,-0.6610,-0.0852,-16.7828,-16.7790,-35.3686,225,29,-10,-5,1,-54
850,401.3,30.6,951.7,540.2,40,1,50.48249,6.18073,519.7,0.070,128,0.1343,2.1607,9.8620,0.2781,-0.2451,-0.1444,-14.0216,-13.6682,-39.3248,216,21,-4,-7,1,-54
851,401.8,30.7,951.8,539.0,41,1,50.48249,6.18073,519.7,0.070,128,0.0633,1.6879,9.6988,0.4079,0.3773,-0.2596,-15.1177,-13.8016,-37.6931,225,17,-7,1,1,-52
852,402.2,30.8,951.8,538.6,40,1,50.48249,6.18073,519.7,0.090,128,-0.0822,0.8300,9.7188,0.0773,0.0695,-0.0141,-13.8236,-13.7539,-37.2727,234,13,-10,3,1,-52
853,402.7,30.7,951.8,539.2,41,1,50.48249,6.18073,519.7,0.090,128,1.0099,1.2566,10.5381,-0.2215,0.2393,0.7849,-9.3522,-12.0884,-39.0415,219,23,-7,-10,1,-54
854,403.1,30.7,951.7,540.2,40,1,50.48249,6.18073,519.7,0.090,128,0.4443,1.4841,10.3784,0.1344,0.2487,-0.0595,-13.3866,-11.0921,-38.8797,219,27,-8,-4,1,-52
855,403.5,30.7,951.7,539.6,40,1,50.48249,6.18074,519.7,0.090,128,0.7898,1.3893,9.9876,-0.0678,0.1434,0.0159,-12.1104,-13.0777,-38.4321,223,27,-10,-5,1,-52
856,404.0,30.8,951.9,538.0,39,1,50.48249,6.18074,519.7,0.090,128,1.4868,2.1251,9.8514,-0.0253,-0.0558,-0.0637,-10.2942,-13.9345,-38.3718,228,28,-11,-7,1,-52
857,404.4,30.7,951.7,539.6,41,1,50.48248,6.18075,519.7,0.100,128,0.9780,2.0529,9.7481,0.0633,0.0913,0.0250,-9.9924,-14.4405,-37.3639,230,29,-13,-6,1,-51
858,404.9,30.7,951.7,539.5,39,1,50.48248,6.18075,519.7,0.100,128,1.0963,2.1192,9.9406,-0.0221,-0.0250,-0.0765,-9.2683,-16.0934,-36.5823,234,27,-13,-6,1,-52
859,405.3,30.6,951.5,541.4,40,1,50.48248,6.18076,519.7,0.060,128,1.0513,2.2697,9.6812,0.0743,0.0681,0.0031,-8.4066,-16.4706,-36.1766,235,29,-14,-6,1,-50
860,405.8,30.6,951.6,540.7,40,1,50.48248,6.18076,519.7,0.060,128,1.4477,2.1631,9.9218,0.0082,-0.0492,0.0226,-8.1986,-16.2573,-37.5781,236,32,-14,-6,1,-52
861,406.2,30.0,950.7,548.4,40,1,50.48247,6.18078,519.7,1.850,128,0.7638,2.2804,9.7317,-0.0250,-0.0464,0.0464,-8.6875,-15.8968,-36.7129,237,34,-14,-5,1,-50
862,406.7,30.3,951.0,545.7,39,1,50.48247,6.18078,519.7,1.850,128,0.6171,2.7733,9.8361,0.0251,-0.0319,0.0346,-10.3572,-17.4491,-35.3413,236,35,-16,-4,1,-49
863,407.1,30.2,950.9,546.8,40,1,50.48247,6.18078,519.7,1.850,128,0.4289,2.4913,9.4101,-0.0260,-0.1581,-0.0053,-11.6645,-16.6936,-35.1619,234,34,-15,-4,1,-50
864,407.5,26.4,945.3,596.0,41,1,50.48246,6.18079,519.7,2.320,128,0.2668,2.8029,9.7845,0.0886,0.1312,0.0923,-11.9241,-17.5021,-34.7749,236,36,-16,-3,1,-49
865,408.0,26.4,945.3,595.9,40,1,50.48246,6.18079,519.7,2.320,128,0.6869,2.7129,9.6213,0.1168,0.1148,-0.0256,-10.3137,-17.4022,-35.8429,235,37,-15,-5,1,-49
866,408.4,26.8,945.9,590.8,40,1,50.48244,6.18080,519.7,0.120,128,1.0573,2.5399,9.5580,0.0257,0.0442,-0.0247,-8.3126,-18.2003,-34.7493,238,39,-17,-6,1,-48
867,408.9,26.4,945.4,595.3,40,1,50.48244,6.18080,519.7,0.120,128,1.7435,3.0198,9.8291,0.0524,0.1462,-0.1069,-6.6808,-18.6188,-35.0469,240,42,-18,-9,1,-49
868,409.3,26.6,945.7,592.8,40,1,50.48244,6.18081,519.7,0.150,128,2.2216,3.3503,9.6037,-0.0755,-0.0476,-0.0677,-1.5630,-19.2509,-33.5524,250,40,-19,-9,1,-48
869,409.8,26.2,945.1,598.0,40,1,50.48244,6.18081,519.7,0.150,128,1.1353,2.9096,9.2199,0.0520,-0.1768,-0.0010,-5.3719,-19.1563,-34.4015,252,39,-16,-3,1,-49
870,410.2,26.9,946.1,589.1,40,1,50.48244,6.18081,519.7,0.150,128,1.0431,2.6264,9.7751,0.1570,0.1265,0.0165,-7.4221,-18.3120,-34.2861,244,41,-16,-4,1,-48
872,411.1,26.8,946.0,590.2,41,1,50.48244,6.18081,519.7,0.100,128,1.2489,2.8432,9.6260,0.0064,0.0381,0.0082,-7.0669,-19.3515,-34.4103,243,48,-17,-5,1,-52
873,411.5,26.6,945.7,593.0,40,1,50.48244,6.18082,519.7,0.100,128,1.1200,3.1833,9.6495,-0.0311,0.0585,0.0063,-6.6462,-19.1644,-34.2910,243,49,-18,-7,1,-52
874,412.0,26.9,946.0,589.5,41,1,50.48244,6.18082,519.7,0.100,128,1.6299,3.0150,9.8174,-0.0901,-0.1078,0.0443,-6.5155,-20.2112,-32.6759,246,50,-20,-6,1,-55
875,412.4,26.6,945.6,593.0,40,1,50.48244,6.18080,519.7,0.070,128,0.8608,3.5802,9.2598,0.0753,-0.0266,0.0469,-8.0444,-21.9697,-32.9396,245,51,-21,-5,1,-52
876,412.9,26.3,945.2,596.8,40,1,50.48244,6.18080,519.7,0.070,128,1.4477,3.5091,9.5979,-0.0999,0.1135,0.0760,-8.9708,-21.5894,-34.4078,243,54,-21,-5,1,-54
877,413.3,28.2,947.9,573.3,40,1,50.48246,6.18077,519.7,0.160,128,1.2134,3.8634,9.9559,-0.0642,-0.1396,0.0778,-8.0136,-21.5740,-33.6942,246,54,-20,-5,1,-52
878,413.8,27.1,946.3,586.9,40,1,50.48246,6.18077,519.7,0.160,128,0.9022,3.7224,9.2939,0.1434,0.0469,0.0183,-8.9298,-20.4419,-35.1227,242,54,-18,-5,1,-54
879,414.2,26.3,945.1,598.1,40,1,50.48246,6.18077,519.7,0.160,128,0.4585,2.4534,9.9113,0.1668,0.6852,-0.6536,-6.9132,-18.1640,-36.2459,244,49,-11,-4,1,-55
880,414.6,26.9,946.0,589.8,40,1,50.48244,6.18079,519.7,0.050,128,-1.0489,1.7306,9.9289,0.0555,0.4907,0.2560,-12.1182,-14.6666,-38.1273,235,52,-7,2,1,-67
881,415.1,28.4,948.2,570.2,42,1,50.48244,6.18079,519.7,0.050,128,0.0136,0.5421,8.9981,-0.1142,-0.5742,0.7912,-17.6355,-2.1741,-40.8332,178,79,9,-5,1,-59
882,415.5,28.5,948.3,569.3,39,1,50.48243,6.18079,519.7,0.090,128,-0.3366,1.7957,10.4970,-0.0366,0.0860,-0.2787,-19.6925,-7.0208,-38.7355,196,75,-1,-6,1,-57
883,416.0,28.4,948.2,570.8,40,1,50.48243,6.18079,519.7,0.090,128,-2.2902,0.9331,12.6756,0.3249,-0.3125,0.7106,-22.3181,-5.5584,-37.3144,191,75,2,-4,1,-56
884,416.4,28.2,947.9,573.0,40,1,50.48246,6.18075,519.7,0.170,128,-0.1520,1.2708,9.3971,0.4576,0.6412,-0.0273,-26.2219,-1.6981,-37.8628,182,80,2,-4,1,-59
885,416.9,28.3,948.1,571.3,39,1,50.48246,6.18075,519.7,0.170,128,-2.3126,-0.3999,8.5180,0.5411,-0.7583,0.5026,-28.5892,-2.6480,-35.9090,184,69,4,1,1,-52
886,417.3,28.4,948.2,571.0,40,1,50.48247,6.18074,519.7,0.250,128,-2.5635,-0.2518,8.7516,0.4469,0.6845,0.0326,-29.4978,-0.6447,-36.2808,181,64,0,-8,1,-52
887,417.8,28.7,948.7,566.1,39,1,50.48247,6.18074,519.7,0.250,128,-1.2525,0.5824,7.6153,0.1079,0.1056,0.2629,-23.3848,-2.4382,-39.6116,184,57,1,-8,1,-55
888,418.2,28.6,948.5,568.1,40,1,50.48247,6.18074,519.7,0.250,128,-0.6667,1.0706,8.3548,-0.0163,-0.0859,-0.2251,-25.1063,0.5845,-40.2895,172,67,7,-8,1,-54
889,418.6,28.7,948.7,566.4,41,1,50.48249,6.18072,519.7,0.340,128,-1.8760,0.3110,7.8020,0.2579,-0.8549,0.1744,-23.2572,-3.1157,-39.3117,179,62,7,-11,1,-55
890,419.1,28.5,948.4,569.1,40,1,50.48249,6.18072,519.7,0.340,128,-0.8774,0.1321,8.3173,-0.2327,-0.6011,-0.0156,-26.6650,0.2743,-38.5267,173,71,6,-12,1,-54
891,419.5,28.8,948.7,566.0,37,1,50.48250,6.18071,519.7,3.770,5,-0.5520,0.7411,9.3185,-0.1192,0.0418,-0.4550,-25.6488,-0.4836,-38.3685,173,70,7,-21,1,-54
892,420.0,28.5,948.3,569.9,40,1,50.48250,6.18071,519.7,3.770,5,-1.0170,0.3477,10.2188,-0.3193,-0.0353,0.2254,-28.1495,2.2083,-39.0784,170,80,8,-22,1,-51
893,420.4,28.7,948.7,566.5,40,1,50.48252,6.18071,519.7,2.830,5,1.7968,1.2436,9.5591,-0.6157,-0.1967,-0.8673,-23.8143,0.1072,-40.5592,170,72,11,-34,1,-61
894,420.9,28.6,948.4,568.6,40,1,50.48252,6.18071,519.7,2.830,5,-0.8762,2.5493,10.9442,-0.2544,0.2421,-0.0493,-26.4990,-0.1465,-38.9509,172,77,9,-40,1,-58
895,421.3,28.8,948.8,565.5,40,1,50.48254,6.18070,519.7,2.570,5,0.2254,2.5079,9.8995,0.1679,-0.4224,-0.7293,-25.2224,-4.7394,-37.7349,173,68,15,-57,1,-61
896,421.7,28.7,948.5,567.5,40,1,50.48254,6.18070,519.7,2.570,5,-1.1199,2.3609,9.1823,0.1998,-0.8139,0.3222,-29.4299,-2.1295,-36.4778,186,89,-4,-64,1,-60
897,422.2,28.8,948.7,566.1,41,1,50.48254,6.18070,519.7,2.570,5,-1.2181,0.0480,9.3643,0.9422,-0.2905,0.0172,-23.5498,-1.2711,-40.6524,178,78,9,-83,1,-72
898,422.6,28.7,948.6,567.2,40,1,50.48256,6.18070,519.7,4.090,11,0.2893,1.6369,10.7705,-0.1289,-0.1792,0.9648,-23.0324,4.3754,-42.6018,212,172,-82,-64,1,-70
899,423.1,28.9,949.0,563.7,41,1,50.48256,6.18070,519.7,4.090,11,-1.3116,1.6369,6.5272,0.4089,0.1291,0.0031,-27.6032,5.4692,-39.8623,218,168,-84,-58,1,-74
900,423.5,29.0,949.1,562.6,38,1,50.48258,6.18069,519.7,2.880,11,-6.3109,2.0742,15.7803,-0.9644,-0.6795,-0.1681,-32.4549,4.9103,-35.3442,221,154,-74,-54,1,-71
901,424.0,29.0,949.1,562.3,40,1,50.48258,6.18069,519.7,2.880,11,-1.0347,3.0423,8.2750,0.0366,0.5865,-0.1754,-29.5268,1.3893,-36.8246,215,147,-54,-60,1,-70
902,424.4,28.8,948.7,565.8,40,1,50.48259,6.18070,519.7,2.490,11,-2.7114,0.0148,9.0520,0.2455,0.3414,0.4220,-27.5788,3.6006,-39.0689,194,138,-22,-53,1,-72
903,424.9,28.7,948.6,567.3,39,1,50.48259,6.18070,519.7,2.490,11,-2.1849,1.2921,12.1333,0.6058,-0.0560,0.1276,-29.4609,7.4925,-37.3929,186,138,-17,-41,1,-67
904,425.3,28.8,948.7,566.1,41,1,50.48261,6.18071,519.7,3.970,26,-2.8629,-0.4544,10.8984,0.3543,0.3673,0.3286,-31.6531,10.0969,-37.1711,169,134,-0,-26,1,-65
905,425.8,28.7,948.6,567.5,41,1,50.48261,6.18071,519.7,3.970,26,-2.4629,0.6653,9.1917,0.2799,0.6902,0.0264,-31.3956,13.6458,-37.2947,152,136,11,-11,1,-62
906,426.2,28.8,948.7,566.5,40,1,50.48261,6.18071,519.7,3.970,26,-2.4061,-0.3170,8.7433,0.3457,0.1357,0.1942,-31.4760,9.3434,-37.7407,151,123,15,1,1,-62
907,426.7,28.6,948.4,568.8,40,1,50.48262,6.18072,519.7,2.930,11,-3.5231,0.1475,7.5484,0.2626,0.2436,-0.1284,-33.2057,13.0321,-35.7380,148,121,13,1,1,-62
908,427.1,28.8,948.7,566.3,42,1,50.48262,6.18072,519.7,2.930,11,-3.9396,0.0598,9.6178,0.1288,0.1079,-0.3280,-31.1783,10.7012,-36.5230,147,109,19,-1,1,-63
909,427.5,28.5,948.3,569.4,40,1,50.48263,6.18071,519.7,2.340,11,-4.7052,-0.6618,9.4641,0.0721,-0.2808,0.2958,-35.5988,11.5794,-33.7076,146,106,21,3,1,-66
910,428.0,28.8,948.7,566.7,40,1,50.48263,6.18071,519.7,2.340,11,-4.2555,-1.8195,8.9441,0.1278,-0.2031,0.1272,-36.7434,17.2914,-32.3630,138,115,27,5,1,-72
911,428.4,28.8,948.7,566.4,40,1,50.48264,6.18070,519.7,0.110,11,-3.3444,-1.5789,8.5696,0.1682,0.2759,-0.2297,-38.7664,17.3479,-30.6051,136,108,33,9,1,-75
912,428.9,29.0,948.9,564.1,39,1,50.48264,6.18070,519.7,0.110,11,-4.0970,-1.9629,8.7492,0.0776,0.0494,-0.0574,-38.5258,17.1051,-29.8794,137,101,33,9,1,-76
913,429.3,28.8,948.7,566.5,40,1,50.48264,6.18069,519.7,0.040,11,-4.3325,-1.9723,8.6154,0.1027,-0.0141,0.0190,-38.8312,16.3548,-30.3191,137,94,34,8,1,-74
914,429.8,29.0,948.9,564.1,40,1,50.48264,6.18069,519.7,0.040,11,-4.2839,-2.1003,8.4980,0.0841,0.0082,0.0310,-38.3443,16.1864,-30.7282,136,90,35,9,1,-72
915,430.2,28.9,948.8,565.5,40,1,50.48264,6.18069,519.7,0.040,11,-4.2473,-2.3077,8.3454,0.1372,-0.0936,0.1187,-38.9835,17.3485,-30.1491,136,85,35,8,1,-63
916,430.6,28.8,948.7,566.6,42,1,50.48265,6.18069,519.7,0.030,11,-4.2839,-2.4119,7.6106,0.2628,-1.5282,-0.0308,-44.0317,18.6586,-20.8054,138,86,36,17,1,-65
917,431.1,28.9,948.9,564.7,40,1,50.48265,6.18069,519.7,0.030,11,-9.3068,0.2044,1.9881,0.1730,-0.8807,-1.3630,-50.6097,8.8477,8.9101,171,83,38,47,1,-68
918,431.5,29.2,949.3,561.1,41,1,50.48264,6.18068,519.7,0.060,11,-9.7683,1.5315,0.7075,0.0684,0.1954,-0.1655,-48.2540,-1.3980,19.5785,194,75,29,61,1,-67
919,432.0,29.0,949.0,563.3,40,1,50.48264,6.18068,519.7,0.060,11,-9.4299,1.2530,0.8049,0.0292,0.0948,0.0087,-47.8634,-1.1970,19.4468,196,72,28,63,1,-65
920,432.4,29.2,949.3,560.9,38,1,50.48265,6.18068,519.7,0.110,11,-8.9684,-0.0077,1.2780,0.0070,0.1751,0.0473,-48.5284,-0.2588,17.6080,191,65,23,61,1,-58
921,432.8,29.0,949.0,563.8,40,1,50.48265,6.18068,519.7,0.110,11,-7.9094,0.6523,1.5879,0.1300,-0.3152,0.2504,-49.7859,-0.2522,12.9539,187,55,15,58,1,-62
922,433.3,29.2,949.2,561.4,39,1,50.48265,6.18068,519.7,0.060,11,-9.1566,1.3301,0.4810,0.0571,-0.2936,-0.0645,-48.9180,-2.7455,18.2406,192,50,9,68,1,-64
923,433.7,29.1,949.1,563.0,40,1,50.48265,6.18068,519.7,0.060,11,-8.8264,2.1796,-0.2609,0.0198,-0.2751,-0.5568,-48.2386,-8.5743,21.0537,178,24,-17,72,1,-65
924,434.2,29.8,950.1,553.5,37,1,50.48265,6.18068,519.7,0.060,11,-9.1365,1.7791,-0.1329,0.1199,-0.0061,0.2720,-52.4732,-5.2642,18.9579,210,66,27,72,1,-66
925,434.6,29.5,949.7,557.6,40,1,50.48264,6.18068,519.7,0.120,11,-7.3770,0.4781,-2.7740,0.1073,0.7613,-0.0997,-59.2772,-2.0842,24.5183,211,80,40,72,1,-67
926,435.0,29.1,949.1,562.7,40,1,50.48264,6.18068,519.7,0.120,11,-9.9257,1.9462,-0.3254,0.1941,0.0775,0.0199,-61.4535,-6.1129,18.9839,212,68,29,71,1,-68
927,435.5,29.0,949.0,563.4,39,1,50.48265,6.18066,519.7,0.160,11,-9.3968,0.6961,1.2428,0.1013,0.5618,0.1302,-61.2211,-4.0942,25.6698,207,61,22,74,1,-72
928,435.9,29.0,948.9,564.6,39,1,50.48265,6.18066,519.7,0.160,11,-9.0371,1.7448,0.2943,-0.2244,0.4339,-0.2944,-62.5818,-5.3521,22.1588,189,40,3,72,1,-78
929,436.4,28.8,948.6,566.9,40,1,50.48266,6.18065,519.7,0.090,11,-9.5092,0.7980,1.1723,0.1468,-0.0827,0.1627,-64.5184,-4.0291,19.9118,188,39,2,74,1,-72
930,436.8,29.0,948.9,564.5,40,1,50.48266,6.18065,519.7,0.090,11,-9.5127,1.2720,0.5584,-0.0450,-1.0348,0.3106,-61.7509,-2.8450,24.1543,196,43,8,78,1,-71
931,437.2,29.0,949.0,563.6,40,1,50.48266,6.18065,519.7,0.090,11,-9.8878,0.1949,-0.7621,0.1009,-0.2152,0.1403,-63.3684,-0.4189,24.0266,204,47,17,80,1,-62
932,437.7,30.1,950.5,550.3,39,1,50.48266,6.18065,519.7,0.100,11,-9.8724,-0.3715,0.7709,0.0464,0.1366,0.1718,-63.2945,1.0202,21.3334,179,31,1,74,1,-66
933,438.1,29.8,950.1,553.6,39,1,50.48266,6.18065,519.7,0.100,11,-9.9079,-0.2364,0.8671,0.0662,0.0630,0.0735,-63.3972,2.9047,19.5363,184,37,8,72,1,-78
934,438.6,29.6,949.8,556.3,40,1,50.48266,6.18064,519.7,0.050,11,-9.8109,-0.0350,0.8801,0.0594,0.0031,-0.0226,-63.6157,3.8295,19.0278,188,39,12,74,1,-82
935,439.0,30.7,951.5,541.7,40,1,50.48266,6.18064,519.7,0.050,11,-9.2311,-0.5635,0.9341,0.0224,0.0668,0.0315,-63.5523,4.2675,18.4502,190,40,14,73,1,-78
936,439.4,28.0,947.6,576.2,39,1,50.48266,6.18064,519.7,0.890,11,-9.6819,-0.4426,1.0749,0.0440,0.0411,0.0752,-64.0946,4.3422,17.7385,190,38,13,74,1,-94
937,439.9,27.9,947.3,578.2,41,1,50.48266,6.18064,519.7,0.890,11,-9.2252,-0.2400,0.8824,0.0408,0.0765,0.0354,-63.7166,4.7893,18.2690,191,38,14,75,1,-73
938,440.3,29.0,948.9,564.4,39,1,50.48267,6.18063,519.7,0.910,11,-8.8217,0.6629,0.6277,0.0473,-0.0257,-0.1167,-63.7713,2.4684,19.5811,178,23,2,76,1,-75
939,440.7,28.0,947.4,577.5,40,1,50.48267,6.18063,519.7,0.910,11,-9.9517,0.1593,0.9716,0.0202,0.0880,-0.1996,-63.4974,0.0565,17.7832,176,16,-3,76,1,-72
940,441.2,27.9,947.4,577.8,40,1,50.48267,6.18063,519.7,0.910,11,-9.9931,0.8608,1.2791,0.0659,0.0201,-0.0100,-63.5810,-2.9691,17.9489,163,1,-16,76,1,-74
941,441.6,26.7,945.5,594.1,40,1,50.48267,6.18062,519.7,1.860,11,-9.0300,1.4794,0.9963,0.0773,-0.1452,0.0138,-62.8566,-3.9190,17.5165,161,358,-19,75,1,-70
942,442.0,27.4,946.5,585.5,40,1,50.48267,6.18062,519.7,1.860,11,-10.1635,1.4758,1.6606,0.1281,0.1770,0.1026,-63.4882,-3.3937,17.5538,167,0,-16,73,1,-70
943,442.5,26.5,945.2,597.0,40,1,50.48268,6.18061,519.7,1.460,11,-9.5423,1.8645,1.0479,0.1193,-0.1236,0.1458,-62.2484,-4.9494,17.9837,168,359,-16,75,1,-70
944,442.9,27.5,946.8,583.3,40,1,50.48268,6.18061,519.7,1.460,11,-9.2394,1.6512,0.9575,0.0201,-0.0089,0.0944,-63.0737,-4.5770,16.3244,165,356,-20,72,1,-70
945,443.4,27.7,947.0,580.8,40,1,50.48268,6.18061,519.7,0.070,11,-9.5979,1.1653,1.2310,0.0626,0.0179,0.0050,-62.9253,-4.2929,16.6186,163,354,-21,72,1,-72
946,443.8,28.0,947.4,577.7,41,1,50.48268,6.18061,519.7,0.070,11,-9.4642,1.8242,1.1054,0.0086,0.1539,-0.1416,-62.3534,-4.5419,16.4317,168,357,-17,72,1,-73
947,444.3,28.1,947.6,575.6,40,1,50.48268,6.18061,519.7,0.070,11,-10.5966,0.8312,-0.3290,-0.1141,0.0357,0.5348,-62.1557,-4.7888,19.8714,169,2,-14,77,1,-74
948,444.7,28.3,947.8,574.0,40,1,50.48268,6.18060,519.7,0.030,11,-9.4737,1.5670,0.7920,0.1077,-0.0138,0.1088,-61.6640,-4.0977,20.1208,155,347,-25,78,1,-71
949,445.1,28.3,947.9,573.6,39,1,50.48268,6.18060,519.7,0.030,11,-9.6121,1.2637,0.4493,0.0337,0.0186,-0.0058,-61.2494,-4.9301,20.7774,155,345,-26,77,1,-72
950,445.6,28.2,947.8,574.4,39,1,50.48268,6.18060,519.7,0.110,11,-9.5222,1.2862,0.4011,0.0264,-0.0151,-0.0064,-61.3291,-5.1184,21.3682,160,349,-21,77,1,-74
951,446.0,28.4,948.0,572.6,41,1,50.48268,6.18060,519.7,0.110,11,-9.8263,1.4497,0.4058,0.0640,0.0107,-0.0148,-61.5936,-5.3949,21.1765,167,353,-17,76,1,-72
952,446.5,28.3,947.8,573.9,41,1,50.48267,6.18060,519.7,0.160,11,-9.8784,1.5208,0.2309,0.0502,0.0249,-0.0109,-61.6317,-5.4324,22.5189,173,357,-12,76,1,-73
953,446.9,28.4,947.9,572.9,39,1,50.48267,6.18060,519.7,0.160,11,-9.9209,1.5244,0.1805,0.1012,0.0153,-0.0100,-61.6309,-5.5940,21.5906,170,353,-15,77,1,-72
954,447.4,28.3,947.8,574.4,41,1,50.48267,6.18060,519.7,0.060,11,-9.5399,1.7104,0.3014,0.0870,-0.0054,-0.0224,-61.1859,-6.2065,22.9836,168,349,-17,77,1,-72
955,447.8,28.4,948.0,572.4,40,1,50.48267,6.18060,519.7,0.060,11,-9.8216,1.6595,0.2145,0.0529,0.0636,0.0358,-61.2143,-6.1795,22.8947,170,350,-15,77,1,-70
956,448.2,28.3,947.8,574.0,40,1,50.48267,6.18060,519.7,0.060,11,-9.7375,1.6369,0.2767,0.0248,0.0835,0.0326,-60.6234,-6.5341,21.8826,171,349,-15,76,1,-70
957,448.7,28.5,948.0,572.1,40,1,50.48267,6.18060,519.7,0.000,11,-9.5731,1.7282,0.4469,0.0402,0.0186,0.0216,-60.0266,-7.0120,22.9806,173,350,-14,76,1,-70
958,449.1,28.3,947.9,573.5,40,1,50.48267,6.18060,519.7,0.000,11,-9.4429,1.9225,0.2216,0.0460,0.0207,-0.0341,-60.1808,-7.0267,21.7997,172,348,-16,76,1,-70
959,449.6,28.5,948.1,571.5,40,1,50.48267,6.18059,519.7,0.090,11,-9.5447,1.9379,0.2321,0.0597,0.0222,0.0038,-60.6581,-6.7064,22.5030,172,348,-14,76,1,-70
960,450.0,28.4,947.9,573.4,40,1,50.48267,6.18059,519.7,0.090,11,-9.6713,1.9782,0.1758,0.0623,0.0385,0.0443,-60.1402,-6.9043,22.6400,169,344,-18,76,1,-68
961,450.4,28.5,948.1,571.3,41,1,50.48267,6.18058,519.7,0.150,11,-9.6772,2.0185,0.0220,0.0670,0.0165,0.0491,-60.5817,-7.4671,22.3016,168,341,-20,76,1,-71
962,450.9,28.4,948.0,572.6,40,1,50.48267,6.18058,519.7,0.150,11,-9.8937,2.0576,-0.0273,0.0659,0.0109,0.0580,-60.1068,-7.6975,22.8959,167,338,-22,75,1,-68
963,451.3,28.6,948.2,571.0,40,1,50.48267,6.18057,519.7,0.160,11,-9.6228,2.2721,-0.0930,0.0499,0.0375,0.0269,-59.9096,-7.0791,23.5423,167,339,-21,75,1,-71
964,451.8,28.5,948.0,572.2,40,1,50.48267,6.18057,519.7,0.160,11,-9.5601,2.0754,-0.0191,0.0782,-0.0131,0.0135,-59.3971,-6.8619,24.0750,171,342,-17,76,1,-71
965,452.2,28.6,948.2,570.4,40,1,50.48267,6.18057,519.7,0.160,11,-9.7659,1.9936,-0.0813,0.0922,0.0618,-0.0091,-60.0826,-6.6226,24.9545,170,341,-17,76,1,-71
966,452.7,28.5,948.0,572.1,40,1,50.48267,6.18057,519.7,0.110,11,-9.6370,1.9415,0.0561,0.0427,0.0741,0.0109,-59.5363,-7.0083,24.1193,168,337,-20,76,1,-72
967,453.1,28.6,948.2,570.2,40,1,50.48267,6.18057,519.7,0.110,11,-9.7174,2.1287,-0.0625,0.0699,-0.0012,0.0308,-59.4947,-7.2672,23.5311,169,336,-20,75,1,-71
968,453.5,28.5,948.1,571.6,40,1,50.48267,6.18058,519.7,0.080,11,-9.4926,2.3301,-0.2597,0.0066,0.0584,0.0054,-59.7815,-7.7130,23.5469,170,336,-19,76,1,-70
969,454.0,28.6,948.2,570.3,41,1,50.48267,6.18058,519.7,0.080,11,-9.5163,2.1204,-0.0249,0.0560,0.0641,0.0443,-59.6156,-7.6800,24.0640,174,339,-17,75,1,-71
970,454.4,28.5,948.0,572.0,40,1,50.48266,6.18059,519.7,0.090,11,-9.4962,1.8419,0.1359,0.0531,0.0239,0.0505,-59.3917,-7.3357,24.2107,171,336,-19,75,1,-66
971,454.9,28.6,948.2,570.7,40,1,50.48266,6.18059,519.7,0.090,11,-9.5648,1.9829,-0.1165,0.0561,0.0340,0.0268,-59.1920,-6.9980,25.2866,172,337,-17,76,1,-66
972,455.3,28.5,948.0,572.0,40,1,50.48267,6.18058,519.7,0.020,11,-9.4689,2.1785,-0.1458,0.0333,0.0354,0.0534,-59.3247,-7.2823,25.1696,172,337,-17,76,1,-68
973,455.8,28.7,948.3,569.8,40,1,50.48267,6.18058,519.7,0.020,11,-9.5754,2.0220,-0.1822,0.0659,0.0346,0.0176,-59.7964,-7.1137,25.6673,173,337,-16,76,1,-73
974,456.2,28.5,948.0,572.3,39,1,50.48267,6.18057,519.7,0.100,11,-9.6476,1.9284,-0.2151,0.0573,0.0451,0.0039,-59.5388,-7.1673,25.1086,174,338,-15,76,1,-75
975,456.6,28.6,948.2,570.4,40,1,50.48267,6.18057,519.7,0.100,11,-9.4914,1.9344,-0.0332,0.0526,0.0406,-0.0177,-59.3977,-6.9788,25.0198,176,339,-13,76,1,-67
976,457.1,28.5,948.1,571.9,40,1,50.48267,6.18057,519.7,0.100,11,-9.4701,2.0564,0.1676,0.1253,0.0782,-0.0919,-59.8348,-6.9888,23.0111,180,343,-8,74,1,-66
977,457.5,28.1,947.5,576.7,40,1,50.48267,6.18057,519.7,0.070,11,-9.7683,2.3159,0.2415,0.0502,-0.0919,-0.0371,-60.2784,-7.8571,22.5418,184,344,-7,74,1,-72
978,458.0,28.1,947.4,577.4,39,1,50.48267,6.18057,519.7,0.070,11,-9.3483,1.6405,0.5080,-0.0711,0.0104,-0.0519,-61.7306,-4.8408,22.8687,198,8,15,71,1,-76
979,458.4,28.1,947.4,577.5,40,1,50.48267,6.18057,519.7,0.070,11,-9.2950,1.5694,0.9493,0.0368,0.1807,-0.0233,-61.8138,-6.4609,23.0847,196,1,9,72,1,-67
980,458.9,28.4,947.9,572.9,42,1,50.48267,6.18057,519.7,0.070,11,-10.2688,1.2898,0.7732,0.0309,-0.0430,0.1516,-62.5104,-6.6790,21.1495,199,2,11,72,1,-67
981,459.3,28.4,947.9,572.8,40,1,50.48266,6.18054,519.7,2.590,238,-9.3116,1.6772,0.8953,0.2090,0.1641,-0.0043,-62.2424,-6.4494,19.8516,192,354,4,71,1,-68
982,459.7,28.5,948.0,572.0,39,1,50.48266,6.18054,519.7,2.590,238,-9.7032,2.2341,1.0045,0.0189,-0.0493,-0.0012,-61.9456,-6.9649,20.0778,187,348,-2,72,1,-77
983,460.2,28.4,947.9,573.7,39,1,50.48266,6.18054,519.7,2.590,238,-9.5920,2.0043,1.0150,0.0506,0.0446,0.0105,-61.5675,-7.1912,19.1226,183,342,-8,73,1,-73
984,460.6,28.5,948.0,572.1,40,1,50.48265,6.18056,519.7,0.400,238,-9.5163,2.1322,0.9974,0.0511,0.0390,0.0141,-61.3186,-7.7345,18.9357,180,338,-10,73,1,-80
985,461.1,28.4,947.8,574.2,39,1,50.48265,6.18056,519.7,0.400,238,-9.5979,2.1180,1.0103,0.0411,0.0413,0.0000,-61.4418,-7.9842,20.1313,179,337,-11,74,1,-82
986,461.5,28.5,948.1,571.6,40,1,50.48267,6.18055,519.7,1.000,329,-9.5056,2.1713,0.9376,0.0423,0.0334,-0.0072,-61.3020,-6.9744,20.0079,177,335,-12,74,1,-70
987,462.0,28.4,947.8,573.8,41,1,50.48267,6.18055,519.7,1.000,329,-9.5281,2.1974,0.9716,0.0604,0.0131,0.0450,-61.2224,-7.4306,20.1440,176,334,-13,74,1,-82
988,462.4,28.5,948.0,572.1,40,1,50.48267,6.18053,519.7,1.700,304,-9.5459,2.3041,0.7533,0.0495,0.0424,0.0011,-61.0105,-8.1439,20.1496,180,335,-11,74,1,-67
989,462.8,28.4,947.8,573.9,40,1,50.48267,6.18053,519.7,1.700,304,-9.5033,2.3455,0.8061,0.0617,0.0174,0.0282,-60.9642,-8.2174,21.2124,178,332,-13,74,1,-72
990,463.3,28.5,948.0,572.3,40,1,50.48268,6.18052,519.7,1.730,299,-9.5719,2.3076,0.8730,0.0524,0.0288,0.0103,-60.5052,-8.0810,20.8160,177,330,-14,74,1,-76
991,463.7,28.4,947.8,574.2,40,1,50.48268,6.18052,519.7,1.730,299,-9.5825,2.2413,0.8754,0.0496,0.0441,0.0322,-60.9990,-8.0232,21.0340,177,330,-13,74,1,-78
992,464.2,28.5,948.0,572.5,40,1,50.48268,6.18052,519.7,1.730,299,-9.4855,2.2697,0.8613,0.0445,0.0346,0.0130,-60.6715,-9.0218,20.8061,178,330,-13,74,1,-75
993,464.6,28.4,947.8,574.3,40,1,50.48269,6.18051,519.7,1.330,285,-9.5991,2.3289,0.8073,0.0462,0.0409,0.0141,-60.9123,-8.5740,20.7429,178,328,-14,74,1,-73
994,465.0,28.5,948.0,572.4,39,1,50.48269,6.18051,519.7,1.330,285,-9.5104,2.3989,0.7955,0.0413,0.0403,0.0082,-60.9093,-8.5622,21.1411,179,328,-13,74,1,-74
995,465.5,28.4,947.8,574.5,40,1,50.48270,6.18051,519.7,0.890,337,-9.2891,2.4273,0.7674,0.0486,0.0455,0.0226,-59.8843,-8.5816,21.2358,179,327,-14,74,1,-77
996,465.9,28.5,947.9,573.1,41,1,50.48270,6.18051,519.7,0.890,337,-9.5198,2.3882,0.7908,0.0496,0.0420,0.0265,-61.1121,-9.0877,21.2022,178,326,-14,74,1,-72
997,466.4,28.3,947.7,575.2,40,1,50.48271,6.18051,519.7,0.840,309,-9.5352,2.4628,0.8096,0.0508,0.0421,0.0272,-60.4779,-8.7368,21.3218,179,327,-13,74,1,-66
998,466.8,28.5,947.9,572.9,42,1,50.48271,6.18051,519.7,0.840,309,-9.7790,2.1595,0.8754,0.0617,0.0525,-0.0117,-60.9693,-8.3004,21.0801,182,329,-10,74,1,-66
999,467.3,28.3,947.6,575.7,40,1,50.48272,6.18052,519.7,1.040,345,-9.7257,3.0162,0.8002,-0.0527,0.5740,-0.3082,-60.8289,-9.1067,19.7141,185,328,-8,73,1,-67
1000,467.7,28.4,947.9,573.4,41,1,50.48272,6.18052,519.7,1.040,345,-9.5766,2.4178,0.7333,-0.2109,0.0194,0.2040,-61.2428,-7.1039,21.2482,187,335,-3,65,1,-61
1001,468.1,28.3,947.7,575.4,40,1,50.48272,6.18052,519.7,1.040,345,-9.5672,2.8764,2.7887,0.0633,0.1089,-0.0747,-61.5069,-7.2621,15.0964,187,339,3,46,1,-59
1002,468.6,27.2,946.1,589.4,39,1,50.48273,6.18051,519.7,2.000,346,-9.3542,1.5279,1.4235,0.1125,-0.0137,0.1138,-63.1348,-6.5692,16.1151,187,340,4,50,1,-55
1003,469.0,26.9,945.7,592.9,40,1,50.48273,6.18051,519.7,2.000,346,-10.0949,1.6298,1.8003,0.0851,0.0288,0.0772,-62.7871,-6.0199,15.5680,188,339,4,52,1,-57
1004,469.5,27.2,946.1,589.4,41,1,50.48275,6.18051,519.7,1.160,313,-9.4405,1.8668,1.6137,0.0348,0.0496,-0.0138,-62.8643,-6.5476,17.0901,188,340,5,54,1,-55
1005,469.9,27.0,945.7,593.0,40,1,50.48275,6.18051,519.7,1.160,313,-9.4524,1.9130,1.4552,0.0462,0.0253,0.0459,-62.5900,-6.2508,16.2638,190,340,6,56,1,-56
1006,470.4,27.5,946.4,586.1,41,1,50.48275,6.18053,519.7,0.380,313,-9.3660,1.8941,1.5421,0.0499,0.0494,0.0269,-62.8674,-5.7979,17.3952,190,340,7,58,1,-57
1007,470.8,27.3,946.1,589.0,39,1,50.48275,6.18053,519.7,0.380,313,-9.6441,1.7637,1.7663,0.0522,0.0435,-0.0012,-65.0948,-2.7501,17.6583,186,339,6,60,1,-57
1008,471.2,27.4,946.3,587.1,40,1,50.48275,6.18053,519.7,0.210,313,-9.5364,1.9912,1.7158,0.0513,0.0333,0.0140,-65.1423,-3.7157,18.1508,188,338,6,61,1,-57
1009,471.7,27.3,946.1,588.8,39,1,50.48275,6.18053,519.7,0.210,313,-9.4938,1.6606,1.6689,0.0558,0.0310,0.0562,-62.4325,-10.5739,16.6012,198,337,6,63,1,-57
1010,472.1,27.3,946.2,588.2,40,1,50.48275,6.18053,519.7,0.210,313,-9.4051,1.5789,1.5550,0.0437,0.0365,0.0590,-64.6752,-8.0394,18.8292,195,337,7,65,1,-59
1011,472.6,27.3,946.1,589.3,42,1,50.48275,6.18055,519.7,0.680,109,-9.6547,1.5481,1.7804,0.0754,0.0253,0.0873,-64.2708,-4.5565,19.3559,191,336,6,67,1,-60
1012,473.0,27.1,945.9,591.0,41,1,50.48275,6.18055,519.7,0.680,109,-9.4713,1.7460,1.6829,0.0485,0.0420,0.0591,-63.2308,-4.6328,15.0110,191,334,5,68,1,-56
1013,473.5,27.2,946.0,589.5,42,1,50.48274,6.18058,519.7,1.880,129,-9.5790,1.5848,1.6477,0.1135,-0.0792,0.1672,-66.0005,-4.3221,14.5797,193,333,6,69,1,-56
1014,473.9,26.9,945.5,593.9,40,1,50.48274,6.18058,519.7,1.880,129,-9.7932,1.4296,1.8461,0.0542,0.0483,0.0167,-67.9191,-3.5734,15.5078,190,331,5,70,1,-66
1015,474.3,27.2,946.0,589.6,39,1,50.48273,6.18061,519.7,1.990,98,-9.7103,1.4071,1.5174,0.0517,0.0357,0.0039,-67.5503,-3.4834,15.1407,189,329,3,71,1,-74
1016,474.8,26.9,945.6,593.6,40,1,50.48273,6.18061,519.7,1.990,98,-9.7198,1.2649,1.8015,0.0402,0.0446,0.0180,-67.0014,-3.4179,15.7335,187,326,1,72,1,-68
1017,475.2,27.2,946.0,589.6,40,1,50.48273,6.18062,519.7,1.410,78,-9.4926,1.5173,1.7017,0.0543,0.0336,0.0261,-67.3242,-3.9027,14.9676,187,325,1,73,1,-68
1018,475.7,27.0,945.6,593.5,40,1,50.48273,6.18062,519.7,1.410,78,-9.6346,1.5362,1.7029,0.0572,0.0329,0.0273,-67.2200,-3.6354,15.3648,185,322,-1,74,1,-61
1019,476.1,27.2,946.0,589.7,39,1,50.48273,6.18062,519.7,1.410,78,-9.5482,1.5741,1.6536,0.0420,0.0367,0.0259,-65.6585,-3.6503,14.4743,181,319,-3,74,1,-59
1020,476.6,27.0,945.6,593.4,40,1,50.48274,6.18059,519.7,1.770,335,-10.0606,1.2400,1.7076,0.0637,0.0078,0.0719,-61.6878,-1.2623,15.8401,179,317,-4,75,1,-77
1021,477.0,27.3,946.1,589.0,39,1,50.48274,6.18059,519.7,1.770,335,-9.4204,1.5445,1.9130,0.0365,0.0444,-0.0028,-63.8516,-4.2057,15.2702,177,313,-7,75,1,-72
1022,477.4,27.1,945.7,592.3,40,1,50.48275,6.18059,519.7,0.970,317,-9.9422,1.4817,1.8555,0.0470,0.0679,-0.0618,-62.9834,-4.1057,15.0387,179,313,-6,76,1,-72
1023,477.9,27.3,946.1,589.2,39,1,50.48275,6.18059,519.7,0.970,317,-9.2619,1.5765,1.7628,0.0273,0.0435,0.0615,-63.0133,-5.0882,16.1804,185,315,-3,75,1,-71
1024,478.3,27.0,945.7,592.6,40,1,50.48275,6.18058,519.7,1.020,305,-9.2678,2.1192,1.2745,0.0713,0.0289,-0.1939,-62.3029,-5.0873,14.9013,180,310,-7,75,1,-64
1025,478.8,27.4,946.1,588.9,40,1,50.48275,6.18058,519.7,1.020,305,-9.5802,1.7187,1.8297,0.1071,-0.0016,-0.0393,-63.0960,-5.5223,15.9318,181,310,-6,75,1,-72
1026,479.2,27.1,945.7,592.2,40,1,50.48275,6.18060,519.7,1.290,112,-9.4879,1.7069,1.6419,0.0561,0.0386,0.0100,-62.9807,-5.4996,15.4013,188,313,-1,74,1,-71
1027,479.7,28.5,947.8,574.1,40,1,50.48275,6.18060,519.7,1.290,112,-9.6796,1.8976,1.0831,-0.1879,-0.4003,0.1311,-61.8577,-4.8518,21.2749,189,312,-1,83,1,-74
1028,480.1,28.7,948.1,571.6,40,1,50.48275,6.18060,519.7,1.290,112,-9.4098,1.2744,0.0607,-0.0534,-0.0858,0.0588,-60.7527,-4.3916,25.7481,181,307,-4,80,1,-72
1029,480.6,29.1,948.7,566.1,39,1,50.48275,6.18060,519.7,0.880,97,-9.8204,1.3763,0.0866,0.0525,-0.0081,0.0360,-60.8586,-4.7306,25.7053,180,305,-5,79,1,-77
1030,481.0,29.0,948.6,567.2,40,1,50.48275,6.18060,519.7,0.880,97,-9.5376,1.7412,0.0772,0.0011,0.0811,0.0782,-60.3085,-4.8858,25.9603,178,302,-7,79,1,-75
1031,481.5,29.3,949.0,563.6,40,1,50.48275,6.18060,519.7,0.120,97,-9.4855,2.0540,0.0267,0.0311,0.0247,-0.0222,-60.3243,-5.7789,26.2017,178,299,-8,78,1,-74
1032,481.9,29.1,948.7,566.6,42,1,50.48275,6.18060,519.7,0.120,97,-9.7162,1.9438,-0.1634,0.0617,0.0096,-0.0156,-60.0612,-5.4716,25.8769,178,297,-8,78,1,-78
1033,482.3,29.3,949.0,563.8,40,1,50.48274,6.18061,519.7,1.030,121,-9.8748,1.9474,-0.2351,0.0528,0.0242,-0.0072,-59.7881,-5.5546,25.7167,180,297,-7,78,1,-68
1034,482.8,29.1,948.7,566.3,38,1,50.48274,6.18061,519.7,1.030,121,-9.9257,1.4557,-0.2949,-0.0119,0.0176,0.0880,-60.7254,-5.2228,25.3109,181,297,-6,77,1,-65
1035,483.2,28.4,947.7,575.1,40,1,50.48274,6.18062,519.7,0.440,121,-9.3589,0.5042,0.9704,-0.0082,-0.1113,0.3462,-63.6716,-4.4656,20.7898,184,294,-3,73,1,-59
1036,483.7,27.8,946.7,583.6,40,1,50.48274,6.18062,519.7,0.440,121,-9.6322,0.9971,1.8238,-0.0115,0.1882,0.1599,-65.3489,-0.1671,21.3139,188,302,6,72,1,-62
1037,484.1,27.6,946.5,585.6,41,1,50.48274,6.18062,519.7,0.440,121,-9.4405,0.9876,1.2897,-0.0042,0.0862,0.0501,-66.1205,1.7213,20.3241,190,309,13,71,1,-61
1038,484.6,27.6,946.4,586.4,40,1,50.48275,6.18060,519.7,0.750,23,-9.9624,0.2364,1.5550,0.0755,0.0496,0.0908,-65.9131,2.4183,19.5245,197,313,19,72,1,-61
1039,485.0,27.4,946.1,588.9,40,1,50.48275,6.18060,519.7,0.750,23,-9.5447,0.2293,1.2475,0.0608,0.1044,0.0020,-65.4494,2.9896,18.5796,194,311,17,72,1,-60
1040,485.5,27.5,946.3,587.2,40,1,50.48275,6.18059,519.7,0.750,297,-9.8665,0.3086,1.2862,0.0572,0.0836,0.0424,-66.0192,1.8453,19.0111,195,307,15,74,1,-65
1041,485.9,27.3,946.0,589.5,40,1,50.48275,6.18059,519.7,0.750,297,-9.8275,0.2269,1.2674,0.0507,0.0660,0.0206,-65.1663,1.9158,18.9419,188,300,9,75,1,-57
1042,486.4,27.5,946.3,587.3,40,1,50.48275,6.18059,519.7,1.080,309,-9.6713,0.1392,1.3731,0.0435,0.0409,0.0265,-65.5988,2.1648,17.9200,188,299,9,75,1,-58
1043,486.8,27.3,946.0,589.9,40,1,50.48275,6.18059,519.7,1.080,309,-9.7091,0.3051,1.3742,0.0274,0.0574,-0.0185,-66.1671,2.1025,18.9939,188,297,8,76,1,-58
1044,487.2,27.5,946.3,587.1,41,1,50.48277,6.18059,519.7,1.050,335,-9.3909,0.3643,1.4118,0.0466,0.0324,0.0258,-65.1897,2.6557,18.3619,186,295,8,76,1,-60
1045,487.7,27.3,946.0,589.5,40,1,50.48277,6.18059,519.7,1.050,335,-10.5824,0.6155,1.6031,-0.0188,-0.0297,-0.0341,-65.4780,2.5190,17.8743,185,293,7,77,1,-58
1046,488.1,27.8,946.7,584.2,40,1,50.48277,6.18059,519.7,1.050,335,-9.9067,0.5610,0.5784,0.0470,0.0201,0.0244,-66.6124,1.7764,23.4038,188,292,7,79,1,-59
1047,488.6,27.8,946.7,583.8,40,1,50.48279,6.18058,519.7,2.780,316,-9.6630,0.4082,0.8096,-0.0068,0.0507,0.0584,-66.5090,2.9527,23.0726,193,297,13,77,1,-60
1048,489.0,28.1,947.1,579.9,41,1,50.48279,6.18058,519.7,2.780,316,-9.7778,0.1842,0.9470,0.0434,0.0305,0.0190,-66.8362,4.8297,23.0444,191,298,15,76,1,-62
1049,489.5,27.9,946.9,582.1,40,1,50.48279,6.18057,519.7,3.960,329,-9.7991,0.2707,1.0092,0.0554,0.1026,0.1015,-66.6814,3.3798,22.3609,175,282,1,78,1,-65
1050,489.9,28.2,947.3,578.6,41,1,50.48279,6.18057,519.7,3.960,329,-9.6287,0.2328,1.1043,0.0344,0.0383,0.0385,-66.4166,4.1692,20.5138,178,285,3,77,1,-61
1051,490.4,28.1,947.1,580.1,40,1,50.48280,6.18057,519.7,5.160,325,-9.7423,0.2684,1.0021,0.0609,0.0566,0.0041,-66.5848,4.5481,20.9530,180,286,6,77,1,-61
1052,490.8,28.2,947.3,578.8,39,1,50.48280,6.18057,519.7,5.160,325,-9.8145,0.2790,1.1230,0.0551,0.0459,0.0153,-66.6055,4.9924,20.9648,180,284,6,77,1,-63
1053,491.2,28.0,947.0,581.1,40,1,50.48280,6.18057,519.7,5.160,325,-9.6393,0.2589,1.1794,0.0517,0.0301,-0.0025,-65.8475,5.0800,19.5379,181,284,6,77,1,-61
1054,491.7,28.4,947.5,576.6,40,1,50.48279,6.18056,519.7,4.360,319,-9.7600,0.4141,1.0526,0.0412,0.0238,0.0218,-65.9578,3.6611,20.8441,180,281,5,77,1,-59
1055,492.1,28.2,947.2,579.2,40,1,50.48279,6.18056,519.7,4.360,319,-9.7328,0.3158,1.1089,0.0477,0.0259,0.0216,-66.1365,3.1131,20.2122,181,279,5,77,1,-61
1056,492.6,28.2,947.2,579.4,41,1,50.48278,6.18054,519.7,3.770,319,-9.6512,0.4449,1.1266,0.0478,0.0397,0.0179,-66.1091,3.3066,20.6684,180,278,4,77,1,-59
1057,493.0,28.2,947.2,579.7,41,1,50.48278,6.18054,519.7,3.770,319,-9.7517,0.4911,1.0244,0.0514,0.0355,0.0261,-65.5329,3.6539,20.9204,181,276,4,78,1,-61
1058,493.5,28.4,947.5,576.7,39,1,50.48275,6.18053,519.7,2.020,331,-9.6961,0.3868,1.1043,0.0529,0.0381,0.0418,-66.3797,3.9877,20.9281,182,277,6,77,1,-60
1059,493.9,28.3,947.4,578.0,40,1,50.48275,6.18053,519.7,2.020,331,-9.6559,0.3442,1.1735,0.0584,0.0431,0.0283,-66.5989,4.0490,20.4839,183,276,7,78,1,-60
1060,494.3,28.3,947.3,578.2,40,1,50.48275,6.18052,519.7,0.720,344,-9.7494,0.4283,1.1512,0.0548,0.0432,0.0230,-66.4487,3.8482,20.3975,182,273,6,78,1,-57
1061,494.8,28.3,947.3,578.6,41,1,50.48275,6.18052,519.7,0.720,344,-9.6370,0.3845,1.2075,0.0558,0.0379,0.0303,-66.4954,4.2289,21.5455,181,273,6,77,1,-60
1062,495.2,28.1,947.0,581.2,40,1,50.48275,6.18052,519.7,0.720,344,-9.6760,0.4437,1.1876,0.0566,0.0407,0.0351,-66.7016,4.3954,19.8764,183,272,7,78,1,-62
1063,495.7,28.2,947.3,578.8,40,1,50.48275,6.18052,519.7,0.800,279,-9.7316,0.3703,1.1266,0.0473,0.0327,0.0293,-66.5901,4.2165,20.4829,184,272,8,78,1,-62
1064,496.1,28.1,947.0,581.1,40,1,50.48275,6.18052,519.7,0.800,279,-9.6180,0.3347,1.1829,0.0481,0.0351,0.0251,-66.5854,4.5781,20.5692,184,271,8,77,1,-63
1065,496.6,28.2,947.2,579.1,40,1,50.48274,6.18052,519.7,0.870,272,-9.6843,0.3418,1.1289,0.0480,0.0418,0.0211,-66.8947,4.5784,20.2871,185,270,8,78,1,-66
1066,497.0,28.1,947.0,581.1,38,1,50.48274,6.18052,519.7,0.870,272,-9.6180,0.3003,1.1665,0.0558,0.0305,0.0230,-66.1518,3.8155,21.3583,186,269,8,78,1,-68
1067,497.4,28.2,947.2,579.5,40,1,50.48272,6.18052,519.7,1.740,239,-9.6476,0.3667,1.1453,0.0553,0.0456,0.0240,-66.6081,4.1163,20.8080,186,267,8,78,1,-68
1068,497.9,28.0,947.0,581.4,40,1,50.48272,6.18052,519.7,1.740,239,-9.6997,0.3643,1.1219,0.0503,0.0392,0.0199,-66.7007,4.2919,20.9391,186,267,9,78,1,-65
1069,498.3,28.2,947.2,579.0,41,1,50.48270,6.18052,519.7,2.060,228,-9.7269,0.3264,1.1336,0.0500,0.0371,0.0289,-66.3915,4.1309,20.1454,186,265,9,78,1,-65
1070,498.8,28.1,947.0,581.2,40,1,50.48270,6.18052,519.7,2.060,228,-9.7115,0.3999,1.1242,0.0532,0.0375,0.0265,-66.4956,4.3319,20.5860,186,264,8,78,1,-67
1071,499.2,28.2,947.3,578.8,40,1,50.48270,6.18052,519.7,2.060,228,-9.6654,0.3786,1.1183,0.0537,0.0404,0.0230,-66.6737,4.2663,20.7772,184,261,7,78,1,-65
1072,499.7,28.1,947.0,581.1,40,1,50.48269,6.18054,519.7,1.030,266,-9.7162,0.3868,1.1043,0.0543,0.0438,0.0248,-66.6884,4.3683,19.8619,184,261,8,78,1,-65
1073,500.1,28.3,947.3,578.7,41,1,50.48269,6.18054,519.7,1.030,266,-9.6890,0.4200,1.1254,0.0531,0.0400,0.0250,-66.3994,4.4603,20.8661,185,260,8,78,1,-70
1074,500.5,28.1,947.0,581.3,40,1,50.48269,6.18054,519.7,1.260,301,-9.6524,0.3620,1.1406,0.0482,0.0397,0.0226,-66.1417,4.3774,20.5731,186,259,8,78,1,-72
1075,501.0,28.3,947.3,578.8,40,1,50.48269,6.18054,519.7,1.260,301,-9.7186,0.3596,1.1559,0.0522,0.0390,0.0222,-66.8883,4.3524,20.8934,186,257,8,78,1,-67
1076,501.4,28.1,947.0,580.9,40,1,50.48269,6.18054,519.7,1.010,325,-9.6453,0.5006,1.0679,0.0513,0.0291,0.0089,-66.7789,3.5750,21.4741,185,256,8,79,1,-67
1078,502.3,28.1,947.1,580.7,40,1,50.48270,6.18054,519.7,0.400,325,-9.6914,0.4378,1.1160,0.0548,0.0483,0.0418,-66.4590,3.8284,21.3122,184,252,7,79,1,-66
1079,502.8,28.3,947.3,578.7,40,1,50.48270,6.18054,519.7,0.400,325,-9.6417,0.4129,1.1125,0.0515,0.0432,0.0212,-67.0240,3.3825,21.3706,185,251,7,79,1,-66
1080,503.2,28.1,947.1,580.6,40,1,50.48270,6.18054,519.7,0.400,325,-9.6606,0.5196,1.1266,0.0524,0.0392,0.0212,-66.0883,3.9311,21.1662,184,249,6,79,1,-65
1081,503.6,28.3,947.3,578.8,40,1,50.48270,6.18054,519.7,0.770,325,-9.7091,0.4366,1.1254,0.0594,0.0371,0.0095,-66.5020,3.3273,20.9462,184,248,6,79,1,-67
1082,504.1,28.1,947.0,581.3,40,1,50.48270,6.18054,519.7,0.770,325,-9.6689,0.5492,1.0866,0.0517,0.0395,-0.0123,-66.9834,3.4175,20.4855,184,246,6,79,1,-66
1083,504.5,28.3,947.3,578.8,41,1,50.48270,6.18055,519.7,1.470,325,-9.6831,0.4402,1.0573,0.0514,0.0611,0.0365,-66.5728,4.0385,22.5198,184,245,7,79,1,-66
1084,505.0,28.1,947.0,581.5,40,1,50.48270,6.18055,519.7,1.470,325,-9.6713,0.3525,1.2416,0.0433,0.0522,-0.0078,-66.8853,5.0087,20.5648,189,249,12,78,1,-66
1085,505.4,28.4,947.4,577.5,40,1,50.48269,6.18057,519.7,0.850,325,-9.7174,0.3549,1.2193,0.0492,0.0455,0.0240,-67.0258,5.1712,20.1500,183,244,8,78,1,-67
1086,505.9,28.0,946.9,579.9,40,1,50.48269,6.18057,519.7,0.850,325,-9.7151,0.5314,1.0784,0.0515,0.0291,0.0003,-66.9948,4.6293,20.2567,181,241,6,79,1,-68
1087,506.3,28.4,947.4,577.7,41,1,50.48270,6.18057,519.7,0.510,325,-9.6618,0.6286,1.0667,0.0467,0.0298,-0.0183,-66.7575,4.9315,20.5660,185,242,8,79,1,-67
1088,506.7,28.2,947.1,579.9,39,1,50.48270,6.18057,519.7,0.510,325,-9.5317,0.3395,1.0984,0.0572,0.0519,0.0354,-66.9522,4.8671,20.4030,185,241,8,79,1,-64
1089,507.2,28.3,947.3,578.7,41,1,50.48270,6.18057,519.7,0.510,325,-9.7115,0.5954,1.0913,0.0489,0.0361,-0.0045,-67.0809,4.4474,19.6821,181,237,5,79,1,-64
1090,507.6,28.3,947.2,579.5,40,1,50.48270,6.18057,519.7,0.510,325,-9.6914,0.5990,1.1301,0.0507,0.0266,0.0552,-67.0688,4.3039,20.5238,181,236,5,79,1,-64
1091,508.1,28.3,947.3,578.9,40,1,50.48270,6.18057,519.7,0.510,325,-9.6819,0.4769,1.0925,0.0515,0.0390,0.0304,-66.8138,4.9996,20.3440,181,235,5,79,1,-63
1092,508.5,28.3,947.3,578.7,40,1,50.48270,6.18057,519.7,0.350,325,-9.7257,0.3999,1.1336,0.0528,0.0437,0.0413,-66.6713,4.3666,20.3045,182,234,5,80,1,-62
1093,509.0,28.1,947.0,581.3,40,1,50.48270,6.18057,519.7,0.350,325,-9.7470,0.4816,1.1324,0.0518,0.0257,0.0457,-66.7439,3.7910,20.5289,177,229,2,80,1,-62
1094,509.4,28.3,947.3,578.9,40,1,50.48272,6.18058,519.7,1.470,325,-9.6453,0.5207,1.1301,0.0482,0.0428,0.0134,-66.6545,3.5012,20.8705,180,230,4,80,1,-63
1095,509.8,28.1,947.0,581.3,41,1,50.48272,6.18058,519.7,1.470,325,-9.6938,0.3987,1.1160,0.0598,0.0434,0.0423,-67.3344,3.1644,20.3375,182,230,5,79,1,-62
1096,510.3,28.3,947.2,579.3,40,1,50.48272,6.18058,519.7,1.680,325,-9.7091,0.5184,1.1465,0.0478,0.0303,0.0296,-66.4574,3.1682,19.9592,180,227,3,80,1,-61
1097,510.7,28.1,947.0,581.3,40,1,50.48272,6.18058,519.7,1.680,325,-9.6370,0.7802,0.7239,0.1117,-0.0427,-0.0459,-67.1323,2.9872,21.4019,175,221,-0,80,1,-60
1098,511.2,28.5,947.4,577.3,39,1,50.48272,6.18058,519.7,1.680,325,-9.6689,0.8904,0.9869,0.0412,0.0309,0.0860,-66.7870,1.4444,21.5610,176,220,-1,79,1,-68
1099,511.6,28.3,947.2,579.4,40,1,50.48272,6.18059,519.7,0.050,325,-9.7387,0.5634,1.1066,0.0435,0.0292,0.0106,-66.9834,2.2898,20.5220,183,225,5,80,1,-72
1100,512.1,28.4,947.4,577.5,39,1,50.48272,6.18059,519.7,0.050,325,-9.7257,0.6167,1.0244,0.0473,0.0411,0.0209,-66.8674,2.2971,20.2571,183,223,5,80,1,-67
1101,512.5,28.3,947.1,579.9,40,1,50.48270,6.18059,519.7,0.060,325,-9.7399,0.4805,1.0115,0.0566,0.0455,0.0312,-66.7130,2.9416,20.8589,182,222,5,80,1,-66
1102,512.9,28.4,947.4,577.9,41,1,50.48270,6.18059,519.7,0.060,325,-9.7387,0.5907,1.1594,0.0491,0.0406,-0.0053,-67.1227,1.7480,21.5571,182,219,3,80,1,-68
1103,513.4,28.3,947.2,579.8,40,1,50.48268,6.18060,519.7,0.080,325,-9.7423,0.5788,1.0432,0.0495,0.0371,-0.0035,-67.1024,2.1094,21.8058,179,217,2,80,1,-66
1104,513.8,28.4,947.4,577.4,41,1,50.48268,6.18060,519.7,0.080,325,-9.8156,0.5847,0.8319,0.0575,0.0354,0.0117,-66.7423,2.0906,20.9377,182,217,4,80,1,-74
1105,514.3,28.3,947.1,580.2,40,1,50.48267,6.18060,519.7,0.060,325,-9.5778,0.4011,0.9810,0.0601,0.0445,0.0492,-66.8368,1.9751,20.8346,180,214,2,80,1,-81
1106,514.7,28.4,947.3,578.8,39,1,50.48267,6.18060,519.7,0.060,325,-9.7056,0.3916,1.2392,0.0460,0.0268,-0.0089,-66.8012,2.7324,20.1663,181,214,4,80,1,-75
1107,515.2,28.2,947.1,580.7,40,1,50.48267,6.18060,519.7,0.060,325,-9.7210,0.4639,1.1148,0.0517,0.0331,0.0167,-67.0828,2.2814,21.1263,179,212,3,80,1,-78
1108,515.6,28.5,947.4,577.3,41,1,50.48266,6.18060,519.7,0.040,325,-9.8452,0.9734,0.8601,0.0434,0.0528,0.0049,-67.3671,1.5842,21.3059,174,206,-1,80,1,-77
1109,516.0,28.2,947.0,581.0,40,1,50.48266,6.18060,519.7,0.040,325,-9.9529,0.3276,1.0350,0.0562,0.0832,0.0304,-66.5600,1.7129,20.4101,174,205,-2,78,1,-79
1110,516.5,28.7,947.8,574.3,40,1,50.48266,6.18061,519.7,0.070,325,-9.6973,0.8348,1.2615,0.0144,0.1399,0.0201,-65.6587,0.4782,20.2017,177,205,-1,79,1,-73
1111,516.9,28.5,947.4,577.3,40,1,50.48266,6.18061,519.7,0.070,325,-9.1696,0.6404,0.8261,0.0766,0.0458,0.0186,-66.1141,0.3971,20.7011,174,202,-3,80,1,-70
1112,517.4,28.8,947.9,573.2,40,1,50.48265,6.18062,519.7,0.100,325,-9.4678,1.0682,0.7333,0.1150,0.0031,-0.0103,-66.0934,-0.7799,22.2131,157,191,-14,83,1,-71
1113,517.8,29.0,948.2,570.8,40,1,50.48265,6.18062,519.7,0.100,325,-9.6583,0.7388,0.7674,0.0597,0.0399,0.0166,-65.9729,-2.1243,22.2368,159,187,-15,83,1,-76
1114,518.3,29.4,948.7,566.1,42,1,50.48265,6.18063,519.7,0.090,325,-9.7269,0.6926,0.2028,-0.0578,-0.2434,-0.0867,-64.6013,-2.3265,25.6094,164,189,-12,84,1,-72
1115,518.7,29.5,948.9,564.2,39,1,50.48265,6.18063,519.7,0.090,325,-9.9399,-0.0042,-0.0003,-0.0318,0.0540,-0.0475,-65.8048,0.0438,26.6350,230,242,40,85,1,-81
1116,519.2,29.9,949.5,559.2,40,1,50.48265,6.18063,519.7,0.090,325,-9.4737,1.4130,1.1242,0.1867,-0.3672,-0.3912,-65.9427,-3.2072,22.0224,196,208,8,79,1,-79
1117,519.6,29.8,949.3,560.6,41,1,50.48265,6.18064,519.7,0.060,325,-9.6299,1.7199,0.9634,0.0318,0.0832,0.0344,-65.8740,-4.5021,20.2754,201,210,11,77,1,-72
1118,520.1,29.5,948.8,564.9,42,1,50.48265,6.18064,519.7,0.060,325,-9.4263,1.5267,1.3519,0.0536,0.0498,0.0191,-65.8969,-4.8463,19.4366,190,200,2,77,1,-71
1119,520.5,29.0,948.2,570.9,41,1,50.48264,6.18065,519.7,0.060,325,-9.4169,1.3620,1.0550,0.0768,0.0263,0.0337,-66.3519,-3.4045,18.9530,197,204,9,75,1,-66
1120,520.9,29.0,948.1,571.3,40,1,50.48264,6.18065,519.7,0.060,325,-9.3861,1.9770,1.5339,0.0518,0.0678,-0.0322,-65.8097,-3.9328,18.6792,183,192,-3,76,1,-74
1121,521.4,29.0,948.1,571.6,41,1,50.48264,6.18064,519.7,0.860,265,-9.6926,1.7258,1.6137,-0.0049,-0.0602,-0.1313,-65.7550,-3.7211,18.6340,175,186,-7,79,1,-78
1122,521.8,29.1,948.3,569.8,40,1,50.48264,6.18064,519.7,0.860,265,-9.8310,1.2021,1.4998,0.0841,0.0437,-0.0163,-66.4399,-4.3612,19.9467,176,185,-7,79,1,-68
1123,522.3,29.5,948.9,564.8,39,1,50.48264,6.18064,519.7,0.940,256,-9.5541,1.7388,1.1125,0.0106,-0.0347,-0.0479,-66.0597,-5.8933,20.9615,165,175,-16,80,1,-78
1124,522.7,29.9,949.4,559.7,40,1,50.48264,6.18064,519.7,0.940,256,-6.9214,3.2804,0.7920,0.2168,0.0971,0.2303,-65.6696,-8.0498,21.7146,159,167,-22,80,1,-74
1125,523.2,29.2,948.4,568.5,40,1,50.48264,6.18064,519.7,0.940,256,-8.1023,0.3904,-0.2644,0.1893,-0.1599,-0.1151,-67.4115,3.2218,24.1572,202,217,25,74,1,-62
1126,523.6,28.9,947.9,572.9,40,1,50.48264,6.18063,519.7,1.590,268,-11.1243,-0.3466,0.5772,-0.1147,-0.2242,-0.1538,-68.0797,5.8472,21.7769,191,212,23,69,1,-64
1127,524.1,28.4,947.3,578.9,40,1,50.48264,6.18063,519.7,1.590,268,-9.2264,-1.2792,0.1300,0.1936,0.1334,0.1418,-67.9082,12.4939,24.3921,199,238,45,67,1,-63
1128,524.5,27.3,945.5,594.0,40,1,50.48266,6.18062,519.7,1.910,292,-7.0161,-5.5698,0.3483,0.2797,-0.0555,0.8872,-64.1114,28.9152,26.2308,184,260,64,56,1,-65
1129,525.0,27.5,945.9,590.9,39,1,50.48266,6.18062,519.7,1.910,292,-7.3497,-8.3555,0.4352,0.1342,-0.0034,0.1963,-55.2735,47.3417,22.9831,161,270,77,38,1,-71
1130,525.4,26.6,944.5,602.9,40,1,50.48267,6.18063,519.7,1.920,321,-6.9841,-6.2262,0.4810,0.0495,0.0441,0.0046,-57.5563,44.5261,20.9809,164,273,78,39,1,-77
1131,525.9,26.7,944.7,601.3,40,1,50.48267,6.18063,519.7,1.920,321,-6.4268,-5.7558,0.5631,0.0642,0.0235,0.2558,-58.5780,43.1216,21.6178,167,275,79,42,1,-66
1132,526.3,26.7,944.7,601.5,39,1,50.48267,6.18064,519.7,1.230,332,-6.9889,-6.7950,0.3882,0.0206,0.0400,-0.0553,-58.7456,43.0315,21.3223,166,279,81,40,1,-66
1133,526.8,26.4,944.3,604.9,40,1,50.48267,6.18064,519.7,1.230,332,-6.6327,-6.1776,0.3577,0.0393,0.0306,0.0763,-56.2527,44.7992,21.0164,165,282,81,39,1,-67
1134,527.2,26.8,944.8,600.7,40,1,50.48267,6.18064,519.7,1.230,332,-5.8257,-6.4537,0.6242,0.0405,0.0665,0.0346,-53.8314,45.3906,18.9471,165,285,82,39,1,-67
1135,527.7,26.5,944.3,604.6,39,1,50.48267,6.18064,519.7,1.410,292,-6.9013,-6.7891,0.9798,0.0493,0.0518,-0.1539,-54.4015,44.4514,20.0116,167,287,83,40,1,-66
1136,528.1,26.8,944.7,601.0,40,1,50.48267,6.18064,519.7,1.410,292,-7.2184,-6.3969,0.7533,0.0437,0.0362,-0.0268,-53.2916,42.9602,20.2044,167,289,84,39,1,-66
1137,528.5,26.5,944.3,604.6,40,1,50.48267,6.18063,519.7,1.420,280,-7.5627,-7.0142,0.6981,0.0186,-0.0147,-0.2268,-52.1432,43.4239,22.0522,167,291,85,38,1,-68
